{
  "Kola": [
    {
      "name": "BAS100",
      "lat": 66.5,
      "lon": 19.0
    },
    {
      "name": "Enontekio (EFET)",
      "lat": 68.36063,
      "lon": 23.41875
    },
    {
      "name": "Ivalo (EFIV)",
      "lat": 68.60589,
      "lon": 27.39907
    },
    {
      "name": "Kemi Tornio (EFKE)",
      "lat": 65.77919,
      "lon": 24.58018
    },
    {
      "name": "Kuusamo (EFKS)",
      "lat": 65.98523,
      "lon": 29.24385
    },
    {
      "name": "Kittila (EFKT)",
      "lat": 67.70396,
      "lon": 24.84361
    },
    {
      "name": "Rovaniemi (EFRO)",
      "lat": 66.56283,
      "lon": 25.82357
    },
    {
      "name": "Sodankyla (EFSO)",
      "lat": 67.4042,
      "lon": 26.6092
    },
    {
      "name": "Andoya (ENAN)",
      "lat": 69.28704,
      "lon": 16.14286
    },
    {
      "name": "Alta (ENAT)",
      "lat": 69.97683,
      "lon": 23.37208
    },
    {
      "name": "Bodo (ENBO)",
      "lat": 67.26949,
      "lon": 14.37791
    },
    {
      "name": "Bardufoss (ENDU)",
      "lat": 69.05814,
      "lon": 18.51472
    },
    {
      "name": "Evenes (ENEV)",
      "lat": 68.48153,
      "lon": 16.67733
    },
    {
      "name": "Kirkenes (ENKR)",
      "lat": 69.72358,
      "lon": 29.877
    },
    {
      "name": "Lakselv (ENNA)",
      "lat": 70.06671,
      "lon": 24.97436
    },
    {
      "name": "Jokkmokk (ESNJ)",
      "lat": 66.4942,
      "lon": 19.7264
    },
    {
      "name": "Kiruna (ESNQ)",
      "lat": 67.81892,
      "lon": 20.33451
    },
    {
      "name": "Arvidsjaur (ESNX)",
      "lat": 65.59159,
      "lon": 19.27974
    },
    {
      "name": "Kallax (ESPA)",
      "lat": 65.54399,
      "lon": 22.12324
    },
    {
      "name": "Vidsel (ESPE)",
      "lat": 65.87675,
      "lon": 20.14502
    },
    {
      "name": "Boden Heli Base (ESPG)",
      "lat": 65.82,
      "lon": 21.69
    },
    {
      "name": "Kalixfors (ESUK)",
      "lat": 67.7669,
      "lon": 20.2495
    },
    {
      "name": "Hemavan (ESUT)",
      "lat": 65.806,
      "lon": 15.0828
    },
    {
      "name": "Hosio",
      "lat": 65.69,
      "lon": 25.18
    },
    {
      "name": "RU 0059 Alakurtti",
      "lat": 66.9594,
      "lon": 30.3383
    },
    {
      "name": "Severomorsk1 (ULAK)",
      "lat": 69.0317,
      "lon": 33.4181
    },
    {
      "name": "Emperor Nicholas II (ULMM)",
      "lat": 68.78052,
      "lon": 32.75153
    },
    {
      "name": "Kalevala (ULPK)",
      "lat": 65.2,
      "lon": 31.16
    },
    {
      "name": "Monchegorsk (UMOE)",
      "lat": 67.9853,
      "lon": 32.7831
    },
    {
      "name": "Olenegorsk (UOLE)",
      "lat": 68.1517,
      "lon": 33.4639
    },
    {
      "name": "Afrikanda (XLMF)",
      "lat": 67.4444,
      "lon": 32.8333
    },
    {
      "name": "Luostari Pechenga (XLML)",
      "lat": 69.4072,
      "lon": 31.1361
    },
    {
      "name": "Severomorsk3 (XLMV)",
      "lat": 68.85,
      "lon": 33.7
    },
    {
      "name": "Kilpyavr (XLMW)",
      "lat": 68.7194,
      "lon": 32.5089
    },
    {
      "name": "Koshka Yavr (XLMY)",
      "lat": 68.83,
      "lon": 32.5
    },
    {
      "name": "Poduzhemye (XLPU)",
      "lat": 64.9633,
      "lon": 34.4914
    }
  ],
  "Afghanistan": [
    {
      "name": "PS",
      "lat": 33.9845,
      "lon": 71.50984
    },
    {
      "name": "DNB",
      "lat": 38.54167,
      "lon": 68.81083
    },
    {
      "name": "DNR",
      "lat": 38.26306,
      "lon": 69.22194
    },
    {
      "name": "ZAH",
      "lat": 29.47377,
      "lon": 60.90081
    },
    {
      "name": "QT",
      "lat": 30.246,
      "lon": 66.94242
    },
    {
      "name": "ZB",
      "lat": 31.35591,
      "lon": 69.45742
    },
    {
      "name": "MRB",
      "lat": 38.05582,
      "lon": 74.50919
    },
    {
      "name": "SRS",
      "lat": 36.49534,
      "lon": 61.07423
    },
    {
      "name": "TRZ",
      "lat": 37.28665,
      "lon": 67.31768
    },
    {
      "name": "BTR",
      "lat": 33.54436,
      "lon": 72.85599
    },
    {
      "name": "KTB",
      "lat": 37.85972,
      "lon": 68.86194
    },
    {
      "name": "RN",
      "lat": 33.60861,
      "lon": 73.11716
    },
    {
      "name": "KLB",
      "lat": 37.98446,
      "lon": 69.80166
    },
    {
      "name": "LBK",
      "lat": 37.821,
      "lon": 65.1358
    },
    {
      "name": "ZAL",
      "lat": 31.0955,
      "lon": 61.54184
    },
    {
      "name": "BAS",
      "lat": 31.83415,
      "lon": 64.21813
    },
    {
      "name": "ADY",
      "lat": 31.09013,
      "lon": 64.06698
    },
    {
      "name": "AHR",
      "lat": 34.2085,
      "lon": 62.23004
    },
    {
      "name": "KAF",
      "lat": 31.49998,
      "lon": 65.83684
    },
    {
      "name": "ASD",
      "lat": 33.39085,
      "lon": 62.26212
    },
    {
      "name": "KBL",
      "lat": 34.5456,
      "lon": 69.29036
    },
    {
      "name": "OKB",
      "lat": 34.56596,
      "lon": 69.20597
    }
  ],
  "GermanyCW": [
    {
      "name": "CS14",
      "lat": 60.31878765095016,
      "lon": 24.94794323344894
    },
    {
      "name": "DE-0",
      "lat": 47.270383798714654,
      "lon": 20.687629541020193
    },
    {
      "name": "EDAD",
      "lat": 51.833036508502175,
      "lon": 12.184490070153892
    },
    {
      "name": "EDAH",
      "lat": 53.878155208266655,
      "lon": 14.151376340606532
    },
    {
      "name": "EDAX",
      "lat": 53.30164566776477,
      "lon": 12.745113116354563
    },
    {
      "name": "EDBC",
      "lat": 51.85617326546091,
      "lon": 11.417436602302589
    },
    {
      "name": "EDBH",
      "lat": 54.337392837696825,
      "lon": 12.71515962569822
    },
    {
      "name": "EDBN",
      "lat": 53.60282420918584,
      "lon": 13.30542169106386
    },
    {
      "name": "EDBP",
      "lat": 53.61569441834632,
      "lon": 11.562342243692068
    },
    {
      "name": "EDCL",
      "lat": 52.707736499961925,
      "lon": 12.072737099999998
    },
    {
      "name": "EDCO",
      "lat": 51.26737771783979,
      "lon": 10.634730119781935
    },
    {
      "name": "EDCP",
      "lat": 54.15919798950809,
      "lon": 13.772016500045396
    },
    {
      "name": "EDDE",
      "lat": 50.9782303586526,
      "lon": 10.95801815486739
    },
    {
      "name": "EDDF",
      "lat": 50.02484753081572,
      "lon": 8.54871170516031
    },
    {
      "name": "EDDH",
      "lat": 53.63575352666313,
      "lon": 9.98508753870625
    },
    {
      "name": "EDDV",
      "lat": 52.46120339505272,
      "lon": 9.679778464939474
    },
    {
      "name": "EDDW",
      "lat": 53.04843845061518,
      "lon": 8.789700531859346
    },
    {
      "name": "EDFG",
      "lat": 50.196539717717414,
      "lon": 9.167893332371062
    },
    {
      "name": "EDFV",
      "lat": 49.606398674269904,
      "lon": 8.368399403166956
    },
    {
      "name": "EDGE",
      "lat": 50.99339464164686,
      "lon": 10.47671316342733
    },
    {
      "name": "EDHE",
      "lat": 53.64693801391183,
      "lon": 9.704243000237156
    },
    {
      "name": "EDHI",
      "lat": 53.53577964112532,
      "lon": 9.832149417425384
    },
    {
      "name": "EDHL",
      "lat": 53.80353577428785,
      "lon": 10.710726678118796
    },
    {
      "name": "EDOP",
      "lat": 53.42842338007193,
      "lon": 11.782947967598957
    },
    {
      "name": "EDOV",
      "lat": 52.63232905893173,
      "lon": 11.819590856841941
    },
    {
      "name": "EDQG",
      "lat": 49.6517505845949,
      "lon": 9.976104844271388
    },
    {
      "name": "EDRB",
      "lat": 49.94738209388109,
      "lon": 6.561191014902644
    },
    {
      "name": "EDRP",
      "lat": 49.26406051776519,
      "lon": 7.488610798191833
    },
    {
      "name": "EDUZ",
      "lat": 51.99902471136765,
      "lon": 12.149969172694835
    },
    {
      "name": "EDVE",
      "lat": 52.31942742978347,
      "lon": 10.559041576183706
    },
    {
      "name": "EDVU",
      "lat": 52.982881557835384,
      "lon": 10.465587263811894
    },
    {
      "name": "ETAR",
      "lat": 49.43482661033917,
      "lon": 7.595957113852766
    },
    {
      "name": "ETHF",
      "lat": 51.115297167621705,
      "lon": 9.285033642556552
    },
    {
      "name": "ETHS",
      "lat": 52.91700223087697,
      "lon": 10.192078338671951
    },
    {
      "name": "ETNL",
      "lat": 53.918780759764665,
      "lon": 12.278926203192611
    },
    {
      "name": "ETNW",
      "lat": 52.452685943225916,
      "lon": 9.430662492908679
    },
    {
      "name": "ETSB",
      "lat": 50.17304848874079,
      "lon": 7.0568236983516615
    },
    {
      "name": "ETSH",
      "lat": 51.76818334825249,
      "lon": 13.167106427946576
    }
  ],
  "SinaiMap": [
    {
      "name": "QAA",
      "lat": 31.73557,
      "lon": 36.0932
    },
    {
      "name": "DAM",
      "lat": 33.3501,
      "lon": 36.4484
    },
    {
      "name": "AST",
      "lat": 27.0312,
      "lon": 31.0325
    },
    {
      "name": "KTN",
      "lat": 34.22025,
      "lon": 37.24895
    },
    {
      "name": "LTK",
      "lat": 35.3994,
      "lon": 35.9507
    },
    {
      "name": "TBA",
      "lat": 29.6067,
      "lon": 34.77285
    },
    {
      "name": "MXR",
      "lat": 30.1164,
      "lon": 31.4048
    },
    {
      "name": "AMN",
      "lat": 32.00445,
      "lon": 36.0658
    },
    {
      "name": "OVD",
      "lat": 29.94595,
      "lon": 34.9372
    },
    {
      "name": "AQB",
      "lat": 29.5905,
      "lon": 34.99693
    },
    {
      "name": "NOZ",
      "lat": 31.19129,
      "lon": 29.9516
    },
    {
      "name": "BLT",
      "lat": 31.5289,
      "lon": 31.1225
    },
    {
      "name": "TRF",
      "lat": 31.6933,
      "lon": 38.7347
    },
    {
      "name": "ROP",
      "lat": 32.97475,
      "lon": 35.5647
    },
    {
      "name": "HGD",
      "lat": 27.1778,
      "lon": 33.7964
    },
    {
      "name": "CAK",
      "lat": 34.299,
      "lon": 35.6997
    },
    {
      "name": "PSD",
      "lat": 31.2788,
      "lon": 32.2378
    },
    {
      "name": "DRZ",
      "lat": 35.29055,
      "lon": 40.1706
    },
    {
      "name": "ASH",
      "lat": 30.1228,
      "lon": 38.7981
    },
    {
      "name": "MAK",
      "lat": 25.5828,
      "lon": 34.5656
    },
    {
      "name": "ZFR",
      "lat": 30.5583,
      "lon": 35.1611
    },
    {
      "name": "GZA",
      "lat": 31.26886,
      "lon": 34.27775
    },
    {
      "name": "SHM",
      "lat": 27.98405,
      "lon": 34.3968
    },
    {
      "name": "KAD",
      "lat": 33.8056,
      "lon": 35.4847
    },
    {
      "name": "DBA",
      "lat": 31.0114,
      "lon": 28.4669
    },
    {
      "name": "BLA",
      "lat": 30.11208,
      "lon": 30.89868
    },
    {
      "name": "KHG",
      "lat": 25.4484,
      "lon": 30.5908
    },
    {
      "name": "HLF",
      "lat": 26.4342,
      "lon": 39.2692
    },
    {
      "name": "BRN",
      "lat": 31.5756,
      "lon": 26.0056
    },
    {
      "name": "LXR",
      "lat": 25.74365,
      "lon": 32.7531
    },
    {
      "name": "TAN",
      "lat": 33.4824,
      "lon": 38.6541
    },
    {
      "name": "QTR",
      "lat": 31.2491,
      "lon": 36.0533
    },
    {
      "name": "FYM",
      "lat": 29.3975,
      "lon": 30.3931
    },
    {
      "name": "ZYT",
      "lat": 30.57285,
      "lon": 32.0943
    },
    {
      "name": "ISA",
      "lat": 30.60055,
      "lon": 32.23122
    },
    {
      "name": "MRN",
      "lat": 30.96031,
      "lon": 31.43853
    },
    {
      "name": "ASL",
      "lat": 30.7979,
      "lon": 32.04444
    },
    {
      "name": "AMB",
      "lat": 30.59534,
      "lon": 31.66665
    },
    {
      "name": "Taba",
      "lat": 32.00994,
      "lon": 34.88123
    },
    {
      "name": "ARF",
      "lat": 30.40109,
      "lon": 31.60725
    },
    {
      "name": "MLZ",
      "lat": 30.41849,
      "lon": 33.15303
    },
    {
      "name": "ARH",
      "lat": 31.073,
      "lon": 33.8319
    },
    {
      "name": "Faid",
      "lat": 30.32992,
      "lon": 32.26799
    },
    {
      "name": "BRA",
      "lat": 31.22925,
      "lon": 34.66074
    },
    {
      "name": "HZR",
      "lat": 31.7619,
      "lon": 34.72703
    },
    {
      "name": "IHA",
      "lat": 30.33089,
      "lon": 31.44346
    },
    {
      "name": "KBR",
      "lat": 30.247,
      "lon": 32.49265
    },
    {
      "name": "NEV",
      "lat": 31.2001,
      "lon": 35.00973
    },
    {
      "name": "RMN",
      "lat": 30.77543,
      "lon": 34.66205
    },
    {
      "name": "AKR",
      "lat": 31.83705,
      "lon": 34.81765
    },
    {
      "name": "WAJ",
      "lat": 30.06728,
      "lon": 31.83652
    }
  ],
  "Falklands": [
    {
      "name": "EGYP",
      "lat": -51.8193378,
      "lon": -58.45225595
    },
    {
      "name": "RGR.",
      "lat": -51.668382550000004,
      "lon": -69.26017060000001
    },
    {
      "name": "SAWC",
      "lat": -50.281277700000004,
      "lon": -72.0531919
    },
    {
      "name": "SAWE",
      "lat": -53.778596050000004,
      "lon": -67.74541615
    },
    {
      "name": "SAWG",
      "lat": -51.60766885,
      "lon": -69.30874765
    },
    {
      "name": "SAWH",
      "lat": -54.84185965,
      "lon": -68.2948854
    },
    {
      "name": "SAWJ",
      "lat": -49.30620345,
      "lon": -67.8058001
    },
    {
      "name": "SAWL",
      "lat": -54.498984750000005,
      "lon": -67.172255
    },
    {
      "name": "SAWO",
      "lat": -54.8188208,
      "lon": -68.30512365
    },
    {
      "name": "SAWR",
      "lat": -48.78326905,
      "lon": -70.14905745
    },
    {
      "name": "SAWT",
      "lat": -51.604925550000004,
      "lon": -72.22046184999999
    },
    {
      "name": "SAWU",
      "lat": -50.019142,
      "lon": -68.57905895
    },
    {
      "name": "SCBI",
      "lat": -54.0502685,
      "lon": -68.80459635
    },
    {
      "name": "SCCI",
      "lat": -53.0052492,
      "lon": -70.8481334
    },
    {
      "name": "SCDW",
      "lat": -53.61009285,
      "lon": -70.47455264999999
    },
    {
      "name": "SCFM",
      "lat": -53.25070265,
      "lon": -70.32897885
    },
    {
      "name": "SCGZ",
      "lat": -54.93155055,
      "lon": -67.62450875
    },
    {
      "name": "SCNT",
      "lat": -51.669339,
      "lon": -72.5297383
    },
    {
      "name": "SCOH",
      "lat": -48.466841849999994,
      "lon": -72.56344390000001
    },
    {
      "name": "SFAL",
      "lat": -51.686894,
      "lon": -57.777549199999996
    },
    {
      "name": "coma",
      "lat": -49.9945735,
      "lon": -68.95108485
    }
  ],
  "Iraq": [
    {
      "name": "RAA",
      "lat": 33.78894,
      "lon": 42.45245
    },
    {
      "name": "MAT",
      "lat": 33.33924,
      "lon": 43.59396
    },
    {
      "name": "BGD",
      "lat": 33.26543,
      "lon": 44.23188
    },
    {
      "name": "IANC",
      "lat": 33.94357,
      "lon": 44.36552
    },
    {
      "name": "ORB",
      "lat": 36.53139,
      "lon": 44.34469
    },
    {
      "name": "RER",
      "lat": 36.23799,
      "lon": 43.95398
    },
    {
      "name": "KIR",
      "lat": 35.47136,
      "lon": 44.34543
    },
    {
      "name": "QYW",
      "lat": 35.77067,
      "lon": 43.121
    },
    {
      "name": "SUL",
      "lat": 35.57958,
      "lon": 45.29003
    }
  ]
}